City,Latitude,Longitude,Max Temperature,Humidity,Cloudiness,Wind Speed,Country,Date
Chokurdakh,70.6333,147.9167,22.39,90,100,17.74,RU,1665270739
Vaini,-21.2,-175.2,73.56,94,75,11.5,TO,1665270739
Albany,42.6001,-73.9662,47.43,70,2,4.61,US,1665270739
Kapaa,22.0752,-159.319,84.52,69,0,13.8,US,1665270740
Caceres,39.522,-6.3748,68.83,44,71,5.82,ES,1665270740
Marzuq,14.4,46.4667,71.73,58,13,3.2,YE,1665270740
Ushuaia,-54.8,-68.3,46.06,66,20,4.61,AR,1665270519
Shaowu,27.3409,117.4831,61.93,90,55,3.74,CN,1665270741
Rocha,-34.4833,-54.3333,52.3,68,97,17.34,UY,1665270741
Barrow,71.2906,-156.7887,32.02,86,100,9.22,US,1665270741
Usinsk,65.9939,57.5281,43.3,93,100,18.48,RU,1665270742
Sola,-13.8833,167.55,81.0,74,21,11.83,VU,1665270542
Khovd,48.0056,91.6419,29.21,42,3,1.52,MN,1665270742
Yellowknife,62.456,-114.3525,51.57,76,100,5.01,CA,1665270742
Kutum,14.2,24.6667,77.31,26,88,10.94,SD,1665270743
Portland,45.5234,-122.6762,89.94,42,20,8.05,US,1665270482
Quatre Cocos,-20.2078,57.7625,69.91,71,39,14.52,MU,1665270743
Lohārdagā,23.4333,84.6833,69.42,94,3,5.57,IN,1665270743
Lorengau,-2.0226,147.2712,83.8,73,53,11.63,PG,1665270743
Diego de Almagro,-26.3667,-70.05,63.48,40,14,5.7,CL,1665270744
Wanaka,-44.7,169.15,52.86,72,80,10.22,NZ,1665270744
Cape Town,-33.9258,18.4232,61.09,80,85,12.62,ZA,1665270662
Lima Duarte,-21.8425,-43.7931,74.5,78,99,2.19,BR,1665270745
George Town,5.4112,100.3354,78.73,90,40,2.3,MY,1665270701
Upernavik,72.7868,-56.1549,21.7,92,100,10.4,GL,1665270746
Bethel,41.3712,-73.414,52.54,69,0,6.91,US,1665270746
Sihlea,45.5,27.1167,55.76,55,56,3.15,RO,1665270746
Yangambi,0.8102,24.4336,67.69,99,30,0.67,CD,1665270747
Punta Arenas,-53.15,-70.9167,46.51,61,40,24.16,CL,1665270476
Torbay,47.6666,-52.7314,54.28,95,100,7.34,CA,1665270747
Nikolskoye,59.7035,30.7861,51.69,79,100,8.12,RU,1665270747
Bom Jardim,-7.7958,-35.5872,69.64,84,1,5.32,BR,1665270748
Mataura,-46.1927,168.8643,65.48,48,89,6.31,NZ,1665270748
Dukat,62.55,155.55,13.33,78,92,4.05,RU,1665270748
George,-33.963,22.4617,59.14,91,25,2.13,ZA,1665270748
Anadyr,64.75,177.4833,28.0,63,16,17.0,RU,1665270748
Shache,38.4167,77.2406,55.56,25,0,3.98,CN,1665270749
Srikakulam,18.3,83.9,77.04,89,100,5.17,IN,1665270749
Talnakh,69.4865,88.3972,21.76,90,95,5.53,RU,1665270749
Horta,38.5333,-28.6333,70.72,88,69,9.24,PT,1665270750
Lüderitz,-26.6481,15.1594,62.46,67,80,8.88,NA,1665270750
New Norfolk,-42.7826,147.0587,52.72,65,52,1.01,AU,1665270750
East London,-33.0153,27.9116,68.29,75,44,10.02,ZA,1665270699
Jamestown,42.097,-79.2353,45.99,56,20,12.66,US,1665270750
Kulhudhuffushi,6.6221,73.07,81.43,74,81,16.02,MV,1665270751
Eenhana,-17.4667,16.3333,71.85,13,1,6.93,NA,1665270751
Cabo San Lucas,22.8909,-109.9124,92.61,42,20,9.22,MX,1665270751
Hilo,19.7297,-155.09,87.28,75,0,12.66,US,1665270751
Petropavlovsk-Kamchatskiy,53.0452,158.6483,37.99,65,40,6.71,RU,1665270752
Kang,-23.6752,22.7876,71.02,25,0,9.75,BW,1665270752
Villazón,-22.0866,-65.5942,55.63,26,78,9.4,BO,1665270752
Erenhot,43.6475,111.9767,30.04,63,5,11.63,CN,1665270752
Calatayud,41.3535,-1.6432,60.53,73,1,3.6,ES,1665270753
Tuktoyaktuk,69.4541,-133.0374,37.74,70,82,12.53,CA,1665270753
Río Gallegos,-51.6226,-69.2181,45.9,58,49,27.76,AR,1665270753
Klaksvík,62.2266,-6.589,49.12,89,100,22.17,FO,1665270753
Hong Kong,22.2855,114.1577,81.18,84,20,8.01,HK,1665270516
Sijunjung,-0.6876,100.9537,70.41,86,100,1.74,ID,1665270754
Ribeira Grande,38.5167,-28.7,71.56,87,63,9.91,PT,1665270754
Atuona,-9.8,-139.0333,76.91,72,16,18.41,PF,1665270754
Beloha,-25.1667,45.05,74.16,53,0,5.57,MG,1665270755
Lebu,-37.6167,-73.65,49.19,74,0,22.7,CL,1665270755
Hithadhoo,-0.6,73.0833,80.96,74,27,13.69,MV,1665270755
Adrar,20.5022,-10.0711,92.64,25,33,5.57,MR,1665270756
Camacupa,-12.0167,17.4833,65.25,37,59,1.81,AO,1665270756
Thompson,55.7435,-97.8558,45.59,39,29,4.0,CA,1665270756
Port Alfred,-33.5906,26.891,58.17,93,19,1.01,ZA,1665270757
Mersing,2.4312,103.8405,75.38,91,100,3.89,MY,1665270757
Ancud,-41.8697,-73.8203,45.73,72,9,8.84,CL,1665270757
Nouadhibou,20.931,-17.0347,70.66,89,7,16.22,MR,1665270495
Coyhaique,-45.5752,-72.0662,46.35,49,40,3.44,CL,1665270758
Qaqortoq,60.7167,-46.0333,28.87,57,22,7.25,GL,1665270758
Tromsø,69.6496,18.957,42.82,81,75,24.16,NO,1665270758
Eyl,7.9803,49.8164,78.19,77,20,14.79,SO,1665270758
Castro,-24.7911,-50.0119,56.55,86,0,4.36,BR,1665270759
Touros,-5.1989,-35.4608,77.67,81,3,14.38,BR,1665270759
Rikitea,-23.1203,-134.9692,70.92,68,35,18.52,PF,1665270759
Marawi,7.9986,124.2928,72.43,88,51,1.05,PH,1665270759
Katsuura,35.1333,140.3,70.09,65,100,14.45,JP,1665270760
Souillac,-20.5167,57.5167,70.18,64,20,11.5,MU,1665270760
Pochutla,15.7432,-96.4661,86.83,82,100,3.67,MX,1665270760
Busselton,-33.65,115.3333,57.87,72,77,5.57,AU,1665270760
Longkou,37.6508,120.3286,55.47,73,82,17.92,CN,1665270761
Khatanga,71.9667,102.5,4.96,99,66,1.25,RU,1665270761
Preslav,43.1667,26.8167,54.57,69,9,4.03,BG,1665270761
Cayenne,4.9333,-52.3333,80.64,83,0,4.61,GF,1665270762
Saldanha,-33.0117,17.9442,59.81,82,50,19.06,ZA,1665270762
Merke,42.8728,73.1786,53.49,35,1,4.41,KZ,1665270762
Jurm,36.8648,70.8342,45.79,28,0,1.52,AF,1665270763
Kahului,20.8947,-156.47,87.82,73,40,13.8,US,1665270763
Verkhnevilyuysk,63.4453,120.3167,29.57,94,100,7.74,RU,1665270503
Las Vigas de Ramírez,19.6333,-97.0833,51.76,94,90,5.06,MX,1665270763
Kaitangata,-46.2817,169.8464,58.71,49,93,3.91,NZ,1665270764
Ascension,30.2169,-90.9001,84.2,44,3,8.95,US,1665270764
Port Elizabeth,-33.918,25.5701,63.32,88,5,4.0,ZA,1665270618
Hobart,-42.8794,147.3294,53.06,64,20,9.22,AU,1665270644
Faanui,-16.4833,-151.75,78.39,75,9,16.49,PF,1665270765
Gamba,-2.65,10.0,75.52,90,85,4.88,GA,1665270765
Tasiilaq,65.6145,-37.6368,32.16,97,90,5.68,GL,1665270766
Saskylakh,71.9167,114.0833,12.54,98,92,2.62,RU,1665270766
Nelson Bay,-32.7167,152.15,57.11,90,100,18.01,AU,1665270766
Airai,-8.9266,125.4092,68.09,63,88,3.24,TL,1665270766
Necochea,-38.5473,-58.7368,44.78,72,66,25.66,AR,1665270767
Mar del Plata,-38.0023,-57.5575,46.09,81,87,8.99,AR,1665270767
Severo-Kuril'sk,50.6789,156.125,45.0,67,97,14.27,RU,1665270767
Chui,-33.6971,-53.4616,54.09,81,100,5.39,UY,1665270767
Ostrovnoy,68.0531,39.5131,44.53,86,26,20.78,RU,1665270513
Dikson,73.5069,80.5464,31.46,84,100,7.76,RU,1665270768
São Filipe,14.8961,-24.4956,78.44,80,12,5.26,CV,1665270768
Grindavik,63.8424,-22.4338,37.87,93,75,5.75,IS,1665270769
Yulara,-25.2406,130.9889,62.28,27,0,18.92,AU,1665270769
Murgab,37.4966,61.9714,57.45,17,0,6.89,TM,1665270769
Palmer,42.1584,-72.3287,49.86,61,0,9.22,US,1665270770
Elizabeth City,36.2946,-76.2511,60.03,66,0,11.5,US,1665270770
Kruisfontein,-34.0033,24.7314,53.89,82,3,6.38,ZA,1665270770
Satun,6.8333,100.0,77.0,96,94,1.5,TH,1665270770
Arraial do Cabo,-22.9661,-42.0278,70.12,88,100,12.59,BR,1665270554
Severnoye,56.3491,78.3619,44.91,75,96,7.96,RU,1665270771
‘Ewa Beach,21.3156,-158.0072,87.75,58,0,8.05,US,1665270771
Paita,-5.0892,-81.1144,64.31,85,56,18.92,PE,1665270772
Chebsara,59.2002,38.8356,52.93,86,100,12.21,RU,1665270772
Ahipara,-35.1667,173.1667,60.78,68,92,11.39,NZ,1665270772
Tuatapere,-46.1333,167.6833,60.51,55,99,8.3,NZ,1665270772
Tiksi,71.6872,128.8694,16.7,88,100,5.97,RU,1665270773
Tura,25.5198,90.2201,71.6,95,89,3.02,IN,1665270773
Antalaha,-14.9003,50.2788,66.47,84,37,7.02,MG,1665270773
Great Falls,47.5002,-111.3008,73.67,29,0,0.0,US,1665270773
Kiunga,-6.1219,141.2906,78.04,93,100,1.21,PG,1665270774
Butaritari,3.0707,172.7902,82.31,76,36,17.43,KI,1665270774
Celestún,20.8667,-90.4,81.59,74,54,17.07,MX,1665270774
Calvinia,-31.4707,19.776,64.8,22,3,5.08,ZA,1665270774
Vetlanda,57.4289,15.0776,43.86,95,7,7.96,SE,1665270775
Ponta do Sol,32.6667,-17.1,70.72,71,34,5.32,PT,1665270775
Fomento,22.1039,-79.7217,80.35,90,32,7.49,CU,1665270775
Östersund,63.1792,14.6357,41.45,81,96,20.71,SE,1665270775
Gorom-Gorom,14.4439,-0.2361,85.5,49,94,5.21,BF,1665270775
Ekhabi,53.5102,142.9671,36.01,78,99,11.23,RU,1665270776
Kumbo,6.2,10.6667,59.31,95,100,0.87,CM,1665270776
Härnösand,62.6323,17.9379,45.0,71,66,20.31,SE,1665270482
Deputatsky,69.3,139.9,15.58,87,100,12.64,RU,1665270777
Nuuk,64.1835,-51.7216,33.31,76,83,4.94,GL,1665270777
Lumphat,13.4878,106.9816,72.23,99,100,1.77,KH,1665270777
Cherdyn',60.403,56.4787,41.86,94,78,6.85,RU,1665270778
Hoquiam,46.9809,-123.8893,81.45,77,0,10.36,US,1665270779
Walvis Bay,-22.9575,14.5053,55.98,96,48,9.37,NA,1665270779
Puerto Ayora,-0.7393,-90.3518,66.54,88,81,8.01,EC,1665270779
Bluff,-46.6,168.3333,65.8,57,83,15.95,NZ,1665270780
Provideniya,64.3833,-173.3,33.75,66,71,16.02,RU,1665270780
Varberg,57.1056,12.2508,54.05,84,3,20.49,SE,1665270780
Sibolga,1.7427,98.7792,75.63,86,100,3.51,ID,1665270780
Clyde River,70.4692,-68.5914,21.43,73,100,6.91,CA,1665270780
Domokos,39.1272,22.3003,61.99,53,88,2.55,GR,1665270781
Saint-Philippe,-21.3585,55.7679,65.79,78,34,11.86,RE,1665270781
Mumford,5.2618,-0.759,76.35,89,64,7.72,GH,1665270781
Bredasdorp,-34.5322,20.0403,53.02,90,98,2.1,ZA,1665270781
Cidreira,-30.1811,-50.2056,63.81,82,27,9.82,BR,1665270782
Hamilton,39.1834,-84.5333,55.8,50,0,9.22,US,1665270782
Buala,-8.145,159.5921,84.94,62,39,8.37,SB,1665270783
Viedma,-40.8135,-62.9967,46.31,52,78,8.7,AR,1665270591
Ilulissat,69.2167,-51.1,28.42,80,100,11.5,GL,1665270783
Santa Rosa,14.3122,121.1114,80.11,85,7,6.42,PH,1665270783
Nanortalik,60.1432,-45.2371,33.03,63,19,6.02,GL,1665270783
Qaanaaq,77.484,-69.3632,7.43,68,95,10.8,GL,1665270784
Galle,6.0367,80.217,77.59,86,50,8.95,LK,1665270610
Bafra,41.5678,35.9069,66.31,84,100,4.38,TR,1665270784
Traralgon,-38.1833,146.5333,50.0,58,91,3.94,AU,1665270784
Severnyy,50.677,36.5532,44.64,87,0,4.47,RU,1665270785
Nabire,-3.3667,135.4833,79.86,85,99,2.21,ID,1665270785
Homer,59.6425,-151.5483,54.03,72,100,5.75,US,1665270785
Thoen,17.6129,99.2161,72.23,98,57,2.08,TH,1665270785
Esna,25.2934,32.554,75.49,37,0,14.36,EG,1665270786
Chunskiy,56.0815,99.6342,27.03,93,100,2.66,RU,1665270786
Bitung,1.4451,125.1824,77.85,74,89,0.87,ID,1665270786
Killarney,52.05,-9.5167,48.56,93,34,7.07,IE,1665270786
Malyn,50.7723,29.2383,45.64,73,10,7.4,UA,1665270736
Concepción del Uruguay,-32.4825,-58.2372,55.98,52,43,8.01,AR,1665270787
Caarapó,-22.6342,-54.8222,66.51,73,0,5.39,BR,1665270788
Carnarvon,-24.8667,113.6333,67.12,59,36,15.86,AU,1665270788
Paamiut,61.994,-49.6678,30.54,49,54,8.1,GL,1665270659
Yarmouth,41.7057,-70.2286,52.02,87,0,0.0,US,1665270789
Chimbote,-9.0853,-78.5783,62.37,83,41,9.06,PE,1665270574
Dom Pedrito,-30.9828,-54.6731,57.27,83,99,12.93,BR,1665270789
Weligama,5.9667,80.4167,76.15,90,51,7.58,LK,1665270790
Mergen,49.1833,125.2167,30.87,51,14,8.59,CN,1665270790
Puerto Escondido,15.85,-97.0667,86.83,58,20,3.44,MX,1665270790
Caravelas,-17.7125,-39.2481,75.67,82,15,10.89,BR,1665270790
Saint-Joseph,-21.3667,55.6167,64.78,75,16,11.95,RE,1665270791
Ozuluama de Mascareñas,21.6667,-97.85,71.22,94,97,8.34,MX,1665270791
Ithaca,42.4406,-76.4966,50.02,74,75,3.44,US,1665270564
Ixtapa,20.7,-105.2,87.22,66,0,10.36,MX,1665270792
Manado,1.487,124.8455,77.77,94,40,2.3,ID,1665270792
Port-Gentil,-0.7193,8.7815,78.76,83,40,6.91,GA,1665270792
Makakilo City,21.3469,-158.0858,86.32,58,0,8.05,US,1665270793
Longyearbyen,78.2186,15.6401,39.04,75,75,8.05,SJ,1665270793
Kavaratti,10.5669,72.642,80.74,76,12,8.57,IN,1665270793
Laguna,38.421,-121.4238,96.08,26,0,9.22,US,1665270794
Ulladulla,-35.35,150.4667,53.78,66,99,13.38,AU,1665270794
Kropotkin,45.4375,40.5756,60.15,71,90,18.48,RU,1665270794
Fortuna,40.5982,-124.1573,61.99,68,12,6.17,US,1665270794
Monrovia,6.3005,-10.7969,76.77,87,91,5.39,LR,1665270550
Laredo,27.5064,-99.5075,86.29,42,100,8.05,US,1665270795
Kaeo,-35.1,173.7833,59.86,69,96,11.95,NZ,1665270795
Duncan,34.5023,-97.9578,57.42,74,100,5.75,US,1665270795
Fuyu,45.1833,124.8167,40.87,93,100,12.03,CN,1665270796
Luan,46.3592,6.9759,50.36,94,100,1.01,CH,1665270796
Tautira,-17.7333,-149.15,76.32,81,43,15.86,PF,1665270796
Pangnirtung,66.1451,-65.7125,27.37,86,100,3.22,CA,1665270796
Lavrentiya,65.5833,-171.0,31.86,54,2,14.85,RU,1665270797
Bonga,7.2833,36.2333,57.74,99,96,0.89,ET,1665270797
Llanes,43.4198,-4.7549,63.43,80,1,10.25,ES,1665270798
Tual,-5.6667,132.75,83.62,76,89,15.68,ID,1665270798
Dunedin,-45.8742,170.5036,57.43,55,85,5.17,NZ,1665270798
Port Hardy,50.6996,-127.4199,59.36,83,54,6.76,CA,1665270798
Seoul,37.5683,126.9778,58.44,60,100,4.5,KR,1665270609
Avarua,-21.2078,-159.775,78.85,65,20,16.11,CK,1665270501
Flin Flon,54.7682,-101.865,56.41,50,8,4.97,CA,1665270799
Straumen,63.8709,11.2999,44.6,71,99,15.79,NO,1665270799
Shirwal,18.1333,73.9833,68.92,92,72,3.27,IN,1665270799
Meulaboh,4.1363,96.1285,75.92,84,100,3.78,ID,1665270662
São João da Barra,-21.6403,-41.0511,73.49,91,43,6.13,BR,1665270800
Pottsville,40.6857,-76.1955,50.95,67,5,3.0,US,1665270800
Bani Walid,31.7566,13.9942,66.54,79,0,6.15,LY,1665270801
Srednekolymsk,67.45,153.6833,22.19,81,100,14.43,RU,1665270801
Isangel,-19.55,169.2667,79.03,72,60,19.33,VU,1665270801
Bartlesville,36.7473,-95.9808,70.95,33,75,6.91,US,1665270801
Presidencia Roque Sáenz Peña,-26.7852,-60.4388,76.35,35,49,24.05,AR,1665270709
Natal,-5.795,-35.2094,77.65,88,40,5.75,BR,1665270802
Agua Verde,22.9,-106.05,87.89,70,0,11.32,MX,1665270802
Khanbari,27.3747,87.2039,66.65,91,60,1.5,NP,1665270802
San Juan,-31.5375,-68.5364,59.11,15,0,13.89,AR,1665270601
Toora-Khem,52.4675,96.11,15.12,96,97,1.77,RU,1665270803
Te Anau,-45.4167,167.7167,57.49,60,81,10.47,NZ,1665270803
Bubaque,11.2833,-15.8333,81.01,78,94,5.61,GW,1665270804
Saint Paul Harbor,57.79,-152.4072,53.11,82,100,12.66,US,1665270804
Huangpi,30.8845,114.3779,57.18,89,99,6.2,CN,1665270804
Araouane,18.9048,-3.5265,94.15,15,22,7.74,ML,1665270804
Umluj,25.0213,37.2685,82.58,67,4,10.98,SA,1665270804
Hermanus,-34.4187,19.2345,50.81,84,82,6.91,ZA,1665270593
Alofi,-19.0595,-169.9187,75.47,83,100,26.53,NU,1665270805
Salalah,17.0151,54.0924,77.09,73,75,4.61,OM,1665270805
Luena,-11.7833,19.9167,63.25,25,0,0.25,AO,1665270805
Haines Junction,60.7522,-137.5108,50.83,77,96,9.46,CA,1665270805
Beatrice,40.2681,-96.747,66.29,34,0,11.5,US,1665270806
Marrakesh,31.6315,-8.0083,77.07,57,75,3.44,MA,1665270806
Barstow,34.8986,-117.0228,90.59,17,2,11.05,US,1665270807
Kirakira,-10.4544,161.9205,85.53,68,11,9.31,SB,1665270807
Narsaq,60.9167,-46.05,32.22,63,21,8.77,GL,1665270545
Mana,5.6592,-53.7767,80.04,86,45,11.27,GF,1665270808
Rørvik,64.8621,11.2373,46.51,71,20,17.27,NO,1665270808
Nome,64.5011,-165.4064,37.47,70,75,13.8,US,1665270808
Agadez,19.75,10.25,78.85,19,0,9.24,NE,1665270808
Mahébourg,-20.4081,57.7,70.09,64,20,11.5,MU,1665270808
Daru,-9.0763,143.2092,82.51,80,100,11.5,PG,1665270809
Iskateley,67.6803,53.1512,46.8,94,100,17.18,RU,1665270809
Lagoa,39.05,-27.9833,69.96,92,59,13.62,PT,1665270809
Mbanza-Ngungu,-5.25,14.8667,70.14,88,88,7.0,CD,1665270810
Abinsk,44.8726,38.1611,59.07,84,99,4.61,RU,1665270717
Kesinga,20.2,83.2333,73.26,93,64,2.86,IN,1665270810
San Cristobal,7.7669,-72.225,69.84,84,69,2.37,VE,1665270810
Saint George,37.1041,-113.5841,88.95,20,0,4.0,US,1665270811
Cabedelo,-6.9811,-34.8339,79.47,83,2,11.01,BR,1665270811
Northam,51.0333,-4.2167,47.39,85,98,8.46,GB,1665270811
Sinnamary,5.3833,-52.95,80.15,85,63,12.62,GF,1665270811
Chenzhou,25.8,113.0333,57.47,87,97,5.61,CN,1665270812
Lázaro Cárdenas,17.9583,-102.2,84.42,75,14,10.29,MX,1665270812
Flinders,-34.5833,150.8552,52.18,82,100,10.0,AU,1665270812
Prince Albert,53.2001,-105.7677,68.02,27,41,7.92,CA,1665270813
Pangody,65.85,74.4859,39.45,97,100,9.17,RU,1665270813
Kunya,12.2233,8.5325,80.37,41,9,4.27,NG,1665270813
Champerico,14.3,-91.9167,82.8,75,84,4.0,GT,1665270814
Bambous Virieux,-20.3428,57.7575,70.05,64,20,11.5,MU,1665270814
Rodeo,38.033,-122.2669,95.32,53,0,8.05,US,1665270814
Yinchuan,38.4681,106.2731,38.01,29,0,2.8,CN,1665270595
Narrabri,-30.3167,149.7833,60.53,73,98,4.0,AU,1665270815
Muros,42.7762,-9.0603,60.1,93,20,4.83,ES,1665270815
Saint-Augustin,51.226,-58.6502,46.15,90,100,11.77,CA,1665270815
El Copé,8.6167,-80.6,66.88,96,100,1.77,PA,1665270815
Tazovsky,67.4667,78.7,37.35,97,100,6.11,RU,1665270816
Ferkessédougou,9.6,-5.2,72.59,92,96,3.44,CI,1665270816
Beyneu,45.3167,55.2,56.89,47,72,6.98,KZ,1665270816
Katherine,-14.4667,132.2667,82.72,69,40,10.36,AU,1665270677
Bentiu,9.2333,29.8333,72.01,94,100,1.5,SS,1665270817
Leningradskiy,69.3833,178.4167,19.87,73,63,14.14,RU,1665270817
Boa Vista,2.8197,-60.6733,87.78,48,20,4.61,BR,1665270817
Guipavas,48.4352,-4.3972,51.96,84,0,10.36,FR,1665270817
Cape Coast,5.1053,-1.2466,76.33,88,59,8.77,GH,1665270818
Qasigiannguit,68.8193,-51.1922,28.65,94,96,5.46,GL,1665270818
Indian Head,38.6001,-77.1622,55.56,62,0,4.61,US,1665270818
Maihar,24.2667,80.75,73.63,90,55,3.76,IN,1665270819
Vila Velha,-20.3297,-40.2925,75.15,88,75,8.05,BR,1665270819
Shīeli,44.1667,66.75,51.22,46,9,7.83,KZ,1665270819
Avera,33.194,-82.5271,77.05,42,80,3.31,US,1665270819
Aytos,42.7,27.25,53.02,69,2,4.72,BG,1665270820
Bacungan,9.9106,118.7022,81.07,81,99,2.04,PH,1665270820
Treinta y Tres,-33.2333,-54.3833,56.43,50,100,8.99,UY,1665270820
Urupês,-21.2017,-49.29,74.84,49,100,6.42,BR,1665270765
Mananjary,-21.2167,48.3333,64.36,87,12,4.54,MG,1665270821
Esperance,-33.8667,121.9,58.53,51,0,11.23,AU,1665270821
Kenai,60.5544,-151.2583,51.15,98,100,0.0,US,1665270821
Monteagudo,-19.8167,-63.9833,72.3,53,1,3.15,BO,1665270821
Lompoc,34.6391,-120.4579,85.01,80,0,11.5,US,1665270822
Cururupu,-1.8283,-44.8683,75.88,87,49,3.47,BR,1665270822
Constitución,-35.3333,-72.4167,54.07,56,0,16.2,CL,1665270822
Mahina,-17.5065,-149.489,83.97,61,20,5.75,PF,1665270822
Kasongo-Lunda,-6.4667,16.8167,70.39,92,97,3.38,CD,1665270822
Sittwe,20.15,92.9,78.87,86,64,4.07,MM,1665270823
Codrington,-38.2667,141.9667,52.11,72,60,6.22,AU,1665270823
Key West,24.5557,-81.7826,87.8,79,40,11.5,US,1665270823
Valleyview,55.0667,-117.2859,65.98,44,99,8.12,CA,1665270823
Priiskovyy,51.9333,116.6333,27.01,79,10,2.33,RU,1665270823
Okhotsk,59.3833,143.3,27.32,53,12,13.94,RU,1665270824
Itupiranga,-5.1347,-49.3267,82.72,46,88,2.53,BR,1665270824
Rottingdean,50.8098,-0.0594,50.14,63,15,5.73,GB,1665270824
Ponta Delgada,37.7333,-25.6667,71.51,83,75,3.44,PT,1665270748
Broome,42.2506,-75.833,46.02,76,75,0.0,US,1665270824
Geraldton,-28.7667,114.6,45.01,93,32,4.61,AU,1665270824
Sault Ste. Marie,46.5168,-84.3333,50.56,66,100,3.44,CA,1665270824
Nador,35.174,-2.9287,71.85,88,100,3.44,MA,1665270754
Malartic,48.1335,-78.1328,39.02,96,100,8.72,CA,1665270825
Waingapu,-9.6567,120.2641,81.91,76,66,8.34,ID,1665270825
Dunkwa,5.9656,-1.78,72.05,99,98,1.9,GH,1665270825
Wuhu,31.3366,118.3755,57.81,93,100,4.12,CN,1665270825
Hirara,24.8,125.2833,80.35,76,53,14.07,JP,1665270825
San Patricio,28.017,-97.5169,89.55,36,32,10.25,US,1665270825
Salinas,36.6777,-121.6555,77.72,76,100,12.66,US,1665270826
Mpika,-11.8343,31.4529,61.41,40,0,4.63,ZM,1665270826
Fort Nelson,58.8053,-122.7002,73.89,20,3,2.35,CA,1665270826
Bud,39.447,-86.1758,55.35,51,3,5.44,US,1665270826
Hornepayne,49.2138,-84.7705,40.91,68,97,7.54,CA,1665270826
Lábrea,-7.2586,-64.7981,85.06,45,78,2.48,BR,1665270826
Saint-François,46.4154,3.9054,46.67,93,0,0.0,FR,1665270827
Havelock,34.8791,-76.9013,65.95,84,97,6.35,US,1665270827
Manavālakurichi,8.1333,77.3,76.73,84,76,11.07,IN,1665270827
North Bend,43.4065,-124.2243,76.24,94,100,14.97,US,1665270827
Kathmandu,27.7167,85.3167,62.82,94,40,0.0,NP,1665270827
Aban,56.67,96.06,33.28,80,100,7.4,RU,1665270827
Balkhash,46.844,74.9804,50.97,38,1,12.48,KZ,1665270756
Xining,36.6167,101.7667,30.31,46,77,2.06,CN,1665270828
Calama,-22.4667,-68.9333,64.89,8,0,16.11,CL,1665270828
Melfi,40.9965,15.6514,58.68,64,53,4.61,IT,1665270828
Sept-Îles,50.2001,-66.3821,41.05,67,82,3.0,CA,1665270828
Zhangye,38.9342,100.4517,34.99,34,0,7.0,CN,1665270829
Were Īlu,10.6,39.4333,49.32,80,31,5.19,ET,1665270829
Puli,23.9664,120.9695,72.86,89,98,1.88,TW,1665270829
Hailey,43.5196,-114.3153,75.99,26,0,8.05,US,1665270830
Hwange,-18.3693,26.5019,74.97,27,19,4.88,ZW,1665270830
Barinas,8.6226,-70.2075,77.74,85,82,3.78,VE,1665270830
Xinzhi,36.4989,111.7047,42.85,40,0,14.9,CN,1665270831
Fairbanks,64.8378,-147.7164,49.6,86,40,5.75,US,1665270831
Atar,20.5169,-13.0499,90.25,23,27,4.85,MR,1665270831
Eucaliptus,-17.5833,-67.5167,54.81,22,21,8.66,BO,1665270831
Vila do Maio,15.1333,-23.2167,79.59,79,26,12.95,CV,1665270832
Lhokseumawe,5.1801,97.1507,77.25,84,100,2.55,ID,1665270832
Beaumont,30.0861,-94.1019,87.78,31,0,11.5,US,1665270832
Nabisar,25.0685,69.6419,84.31,32,16,9.91,PK,1665270833
Kirkwall,58.9848,-2.9587,50.97,81,98,12.66,GB,1665270833
Moussoro,13.6408,16.4901,88.75,19,63,9.1,TD,1665270833
Rosetta,31.4044,30.4164,72.55,63,2,11.39,EG,1665270833
Nizhniy Kuranakh,58.8353,125.4869,27.77,88,100,7.96,RU,1665270834
Bonthe,7.5264,-12.505,76.86,90,100,3.04,SL,1665270834
San Matías,-16.3667,-58.4,85.37,43,91,5.26,BO,1665270834
Shenjiamen,29.9576,122.298,64.65,74,100,8.52,CN,1665270835
San Angelo,31.4638,-100.437,79.02,36,100,12.66,US,1665270835
Cap-aux-Meules,47.3821,-61.8597,49.44,66,76,17.85,CA,1665270835
Verkhoyansk,67.5447,133.385,18.86,95,100,6.11,RU,1665270606
Lusambo,-4.9667,23.45,68.16,97,93,1.63,CD,1665270836
Kirando,-7.4167,30.6,75.96,43,16,7.54,TZ,1665270836
Dhībān,35.0365,40.5167,78.15,37,48,10.6,SY,1665270836
San Vicente,-26.6167,-54.1333,57.51,86,0,2.3,AR,1665270837
Foumban,5.7291,10.9001,63.52,95,100,2.62,CM,1665270837
St. George's,12.0564,-61.7485,78.69,85,100,12.01,GD,1665270837
Hambantota,6.1241,81.1185,77.0,85,80,9.75,LK,1665270837
Goya,-29.14,-59.2626,65.62,20,54,17.65,AR,1665270838
Ballina,-28.8667,153.5667,71.78,96,100,11.52,AU,1665270838
Oddur,4.1213,43.8894,70.95,81,63,14.61,SO,1665270838
Temir,49.1414,57.13,44.91,78,0,5.66,KZ,1665270838
Husavik,66.0449,-17.3389,36.64,93,100,6.51,IS,1665270839
Guozhen,34.3659,107.359,45.64,62,78,1.25,CN,1665270839
Fuerte Olimpo,-21.0415,-57.8738,79.2,43,0,6.11,PY,1665270839
Mēga,4.05,38.3,61.3,67,40,15.59,ET,1665270839
Tauá,-5.9667,-40.3,90.9,29,76,6.98,BR,1665270840
Krabi,8.0726,98.9105,76.15,91,100,1.88,TH,1665270582
Urubamba,-13.3047,-72.1158,63.5,72,73,6.15,PE,1665270840
Nara,34.6851,135.8049,61.5,58,100,3.65,JP,1665270841
Savannah Bight,16.45,-85.85,82.53,79,99,15.28,HN,1665270841
Pisco,-13.7,-76.2167,62.65,77,13,14.97,PE,1665270841
Chandigarh,30.7343,76.7933,67.96,95,4,2.91,IN,1665270733
Emerald,-23.5333,148.1667,73.54,88,100,4.61,AU,1665270842
Manoel Urbano,-8.8389,-69.2597,82.04,59,77,1.7,BR,1665270842
Tessalit,20.1986,1.0114,86.63,17,3,12.15,ML,1665270843
Andenes,69.3143,16.1194,44.58,76,75,23.02,NO,1665270843
Matara,5.9485,80.5353,75.72,91,52,7.27,LK,1665270843
Cockburn Town,21.4612,-71.1419,82.71,74,4,21.74,TC,1665270844
San José del Guaviare,2.5729,-72.6459,74.98,93,100,0.67,CO,1665270844
Westport,41.1415,-73.3579,55.38,65,0,9.22,US,1665270844
Guanhães,-18.775,-42.9325,65.8,92,99,2.15,BR,1665270845
Mahuva,21.0914,71.7622,80.47,80,100,8.3,IN,1665270845
Bulgan,48.8125,103.5347,23.09,63,8,3.53,MN,1665270845
Naze,28.3667,129.4833,73.92,83,96,2.04,JP,1665270845
Pathein,16.7833,94.7333,74.57,91,48,0.6,MM,1665270846
Teguise,29.0605,-13.564,70.02,83,40,9.22,ES,1665270846
Altay,47.8667,88.1167,42.75,30,31,5.46,CN,1665270846
Bilma,18.6853,12.9164,83.91,19,10,4.38,NE,1665270846
Popondetta,-8.7537,148.2534,88.63,52,11,2.42,PG,1665270847
Brigantine,39.4101,-74.3646,56.05,65,0,5.75,US,1665270847
Gadwāl,16.2333,77.8,74.61,89,100,5.28,IN,1665270847
Ubari,26.5921,12.7805,72.93,37,0,6.96,LY,1665270847
Yambio,4.5721,28.3955,64.78,95,95,3.31,SS,1665270848
Lingao,19.9103,109.6859,77.14,89,46,12.91,CN,1665270848
São Félix do Xingu,-6.6447,-51.995,84.24,44,64,2.55,BR,1665270848
Amahai,-3.3333,128.9167,80.87,81,47,2.3,ID,1665270848
Santa Cruz de la Sierra,-17.8,-63.1667,78.85,57,0,16.11,BO,1665270598
Pacific Grove,36.6177,-121.9166,73.2,91,75,9.22,US,1665270849
Rafaela,-31.2503,-61.4867,57.97,16,3,7.0,AR,1665270849
Louis Trichardt,-23.0439,29.9032,63.12,66,0,0.92,ZA,1665270850
Puri,19.8,85.85,79.32,82,100,5.5,IN,1665270850
Tianpeng,30.9866,103.9393,58.21,76,100,4.05,CN,1665270850
Benguela,-12.5763,13.4055,74.86,78,49,7.43,AO,1665270851
Volchikha,52.0333,80.3833,54.57,36,47,14.41,RU,1665270851
Weiser,44.251,-116.9693,82.31,25,62,1.99,US,1665270851
Denpasar,-8.65,115.2167,80.26,100,40,11.5,ID,1665270642
Paphos,34.7667,32.4167,67.78,64,20,5.75,CY,1665270789
Maragogi,-9.0122,-35.2225,75.74,85,1,6.53,BR,1665270852
Tranås,58.0372,14.9782,42.39,95,2,6.11,SE,1665270852
Crotone,39.0851,17.1178,67.19,60,30,3.31,IT,1665270852
Meadow Lake,34.8014,-106.5436,62.47,71,100,2.24,US,1665270852
Springfield,37.2153,-93.2982,65.21,31,40,5.75,US,1665270853
Vikulovo,56.8167,70.6107,46.06,83,100,7.07,RU,1665270853
Santa Maria,-29.6842,-53.8069,63.66,75,22,4.34,BR,1665270853
Ishigaki,24.3448,124.1572,80.13,79,56,14.18,JP,1665270853
Shimoda,34.6667,138.95,67.71,74,98,18.41,JP,1665270854
Guinguinéo,14.2667,-15.95,82.02,72,69,4.38,SN,1665270854
Wynyard,-41.0,145.7167,51.98,49,8,6.44,AU,1665270854
Bol,13.4586,14.7147,83.48,52,63,10.07,TD,1665270854
Adwa,14.1646,38.8955,62.31,62,51,2.84,ET,1665270855
Snyder,32.7179,-100.9176,66.54,52,0,9.22,US,1665270855
Guerrero Negro,27.9769,-114.0611,77.22,63,2,12.39,MX,1665270855
Okha,53.5739,142.9478,36.82,73,99,11.3,RU,1665270826
Honningsvåg,70.9821,25.9704,44.35,76,100,8.05,NO,1665270856
Alexandroupoli,40.8475,25.8744,53.42,87,0,0.0,GR,1665270767
Jumla,29.2747,82.1838,54.99,99,100,1.66,NP,1665270856
Bara,10.3744,10.7288,76.53,77,70,5.23,NG,1665270856
Namatanai,-3.6667,152.4333,84.56,65,48,11.54,PG,1665270857
Fort Frances,48.5999,-93.4003,54.16,50,0,6.91,CA,1665270857
Fort Abbas,29.1925,72.8536,74.77,79,0,7.09,PK,1665270857
Kadoma,34.7333,135.5833,63.66,58,100,5.44,JP,1665270858
Baruun-Urt,46.6806,113.2792,24.64,80,18,7.05,MN,1665270858
Dudinka,69.4058,86.1778,31.66,98,100,7.16,RU,1665270858
Norman Wells,65.282,-126.8329,47.08,74,98,8.21,CA,1665270859
Berlevåg,70.8578,29.0864,41.0,87,20,6.91,NO,1665270859
Marand,38.4329,45.7749,62.28,45,2,5.3,IR,1665270859
Aswān,24.0934,32.907,77.16,34,2,15.48,EG,1665270720
Fare,-16.7,-151.0167,78.17,75,0,15.75,PF,1665270714
Sechelt,49.4664,-123.7694,78.46,54,0,5.35,CA,1665270859
Roald,62.5833,6.1333,49.75,71,40,13.8,NO,1665270860
Krasnosel'kup,65.7,82.4667,38.82,94,100,7.27,RU,1665270860
Mareeba,-17.0,145.4333,80.47,67,25,4.34,AU,1665270860
Nuevo Progreso,23.1667,-97.95,78.48,71,93,5.99,MX,1665270861
Hervey Bay,-25.2986,152.8535,74.01,84,80,5.99,AU,1665270861
Rio Real,-11.4847,-37.9328,68.68,91,14,5.99,BR,1665270861
Maniitsoq,65.4167,-52.9,30.34,72,100,8.14,GL,1665270861
Sawtell,-30.3833,153.1,73.18,78,97,4.61,AU,1665270861
Zhezkazgan,47.8043,67.7144,45.61,62,6,9.19,KZ,1665270862
Kingsville,27.5159,-97.8561,87.89,42,0,11.5,US,1665270862
Dezful,32.3811,48.4058,84.97,12,0,7.07,IR,1665270862
Olafsvik,64.8945,-23.7142,39.07,94,100,7.36,IS,1665270862
Berwick,41.0545,-76.2333,51.37,76,6,3.87,US,1665270863
Hualmay,-11.0964,-77.6139,63.57,78,6,9.51,PE,1665270863
Linhares,-19.3911,-40.0722,74.32,91,83,3.51,BR,1665270863
Road Town,18.4167,-64.6167,80.69,94,20,6.91,VG,1665270807
Mbaïki,3.8678,17.9892,69.3,98,78,1.05,CF,1665270864
Mizdah,31.4451,12.9801,63.55,78,0,7.96,LY,1665270864
Pevek,69.7008,170.3133,26.31,66,100,29.59,RU,1665270864
Damietta,31.4165,31.8133,72.16,64,0,8.68,EG,1665270864
Ileza,61.0533,43.9002,47.1,87,100,10.33,RU,1665270864
Saint-Pierre,-21.3393,55.4781,70.92,63,0,6.91,RE,1665270865
Simplício Mendes,-7.8539,-41.9103,91.74,22,98,5.73,BR,1665270865
Lyubashivka,47.8372,30.2598,52.02,73,33,3.74,UA,1665270865
Pedernales,18.0384,-71.744,82.98,73,73,7.67,DO,1665270866
Port-Cartier,50.0334,-66.8654,40.75,54,77,7.85,CA,1665270866
Abhā,18.2164,42.5053,59.25,20,0,0.0,SA,1665270866
Chernyshevskiy,63.0128,112.4714,30.87,96,100,11.41,RU,1665270866
Shirokiy,49.758,129.523,32.0,51,50,8.52,RU,1665270867
Ocampo,21.65,-101.5,62.17,57,84,13.98,MX,1665270867
Kaeng Khoi,14.5862,100.9976,80.11,93,90,2.89,TH,1665270867
Abu Dhabi,24.4667,54.3667,84.22,51,0,4.61,AE,1665270688
Vardø,70.3705,31.1107,40.98,81,75,8.05,NO,1665270868
Olavarría,-36.8927,-60.3225,45.01,70,75,13.15,AR,1665270868
Djambala,-2.5447,14.7533,67.71,92,83,2.42,CG,1665270868
Irondequoit,43.2134,-77.5797,50.09,65,100,9.22,US,1665270868
Belton,38.812,-94.5319,64.96,38,0,5.75,US,1665270869
Werda,-25.2667,23.2833,75.33,25,0,16.49,BW,1665270869
Plettenberg Bay,-34.0527,23.3716,58.95,82,12,4.88,ZA,1665270869
Nantucket,41.2835,-70.0995,51.91,75,20,5.75,US,1665270870
Sirāthu,25.65,81.3167,77.97,82,87,5.08,IN,1665270870
San Quintín,30.4833,-115.95,70.56,81,67,10.04,MX,1665270870
St. Pete Beach,27.7253,-82.7412,85.03,55,0,9.22,US,1665270871
Sorong,-0.8833,131.25,79.93,82,100,3.96,ID,1665270871
Murdochville,48.9583,-65.5006,33.39,68,17,5.14,CA,1665270871
Khasan,42.4308,130.6434,57.13,66,100,19.53,RU,1665270871
Abu Kamal,34.4506,40.9171,77.34,44,26,9.31,SY,1665270872
Fengzhen,40.4394,113.1536,28.96,51,38,22.28,CN,1665270872
Mednogorsk,51.4128,57.595,40.86,89,3,3.4,RU,1665270873
Gannan,47.9147,123.5031,34.57,47,100,14.52,CN,1665270873
Mangit,40.5971,70.9607,60.93,29,0,1.72,UZ,1665270873
Strenči,57.6257,25.6854,49.15,91,100,6.67,LV,1665270874
Imbituba,-28.24,-48.6703,64.47,86,0,13.53,BR,1665270874
Progreso,21.2833,-89.6667,85.1,74,33,13.11,MX,1665270874
Baijiantan,45.6333,85.1833,54.97,23,98,8.32,CN,1665270875
Conceição do Araguaia,-8.2578,-49.2647,88.29,38,67,1.28,BR,1665270875
Narón,43.5167,-8.1528,66.04,84,1,4.5,ES,1665270875
Kizlyar,43.8469,46.715,64.4,66,29,20.22,RU,1665270876
Alice Springs,-23.7,133.8833,60.35,33,0,19.57,AU,1665270876
Olonets,60.9847,32.9698,49.39,92,100,14.65,RU,1665270876
Evensk,61.95,159.2333,26.83,71,99,5.59,RU,1665270877
Karatau,43.1667,70.4667,49.37,43,3,4.52,KZ,1665270877
Barsovo,61.1667,73.1667,42.93,92,100,5.53,RU,1665270877
Bétérou,9.1992,2.2586,73.0,94,72,1.63,BJ,1665270878
Cervo,43.6702,-7.4101,57.96,91,21,9.37,ES,1665270878
Lieto,60.5103,22.4618,43.07,100,0,4.61,FI,1665270878
Shanhecun,44.7,127.2,48.07,77,100,10.71,CN,1665270879
Bengkulu,-3.8004,102.2655,76.21,81,100,3.11,ID,1665270879
Kendari,-3.945,122.4989,78.44,88,92,0.94,ID,1665270879
Kaitong,44.8135,123.15,39.69,74,100,17.65,CN,1665270880
Kurumkan,54.3,110.3,25.23,76,73,2.73,RU,1665270880
Mitú,1.1983,-70.1733,74.01,94,100,2.24,CO,1665270880
Kavieng,-2.5744,150.7967,83.61,67,97,15.05,PG,1665270880
Praia da Vitória,38.7333,-27.0667,71.76,94,48,7.52,PT,1665270880
Yakima,46.4665,-120.6678,82.33,33,0,8.05,US,1665270881
Changji,44.0167,87.3167,63.39,16,100,15.66,CN,1665270881
Harrismith,-28.2728,29.1295,59.09,60,67,4.14,ZA,1665270881
Eyrarbakki,63.863,-21.1481,39.25,79,87,7.02,IS,1665270881
Haimen,23.1935,116.6142,75.04,79,36,11.25,CN,1665270882
Amiens,49.9,2.3,47.39,78,6,4.72,FR,1665270860
High Level,58.5169,-117.136,66.31,39,40,0.0,CA,1665270882
Tarabha,20.7333,83.65,73.51,92,53,3.51,IN,1665270883
Wilmington Island,32.0036,-80.9737,75.29,64,20,5.75,US,1665270883
Carutapera,-1.195,-46.02,80.73,74,24,10.76,BR,1665270883
Miass,55.045,60.1083,43.0,83,78,10.54,RU,1665270637
Zhangaözen,43.3,52.8,54.72,43,4,12.5,KZ,1665270884
Anderson,34.5334,-82.6499,71.78,62,0,0.0,US,1665270884
Kampot,10.6167,104.1833,75.25,90,100,4.29,KH,1665270884
Banyuwangi,-8.2325,114.3576,77.05,91,91,3.04,ID,1665270884
Cherskiy,68.75,161.3,20.25,90,100,20.36,RU,1665270885
Phan Thiet,10.9333,108.1,76.01,86,100,3.4,VN,1665270885
Ponnāni,10.767,75.9252,74.52,91,60,5.5,IN,1665270886
Hobyo,5.3505,48.5268,76.93,85,61,24.38,SO,1665270886
Beroroha,-21.6667,45.1667,73.18,53,0,5.03,MG,1665270886
Slave Lake,55.2834,-114.769,61.52,53,96,4.03,CA,1665270857
Cogoleto,44.3893,8.6429,68.04,82,40,3.44,IT,1665270886
Mayumba,-3.432,10.6554,76.37,89,91,7.05,GA,1665270887
Anloga,5.7947,0.8973,78.42,85,92,11.32,GH,1665270887
Tuy Hoa,13.0833,109.3,76.35,92,100,4.27,VN,1665270887
Wattegama,6.7989,81.4808,74.26,89,47,1.81,LK,1665270887
Mahajanga,-15.7167,46.3167,68.02,56,0,4.61,MG,1665270723
Adré,13.4667,22.2,78.94,60,97,8.55,TD,1665270888
Pitimbu,-7.4706,-34.8086,79.39,83,0,10.27,BR,1665270888
Rock Sound,24.9,-76.2,81.91,77,64,13.62,BS,1665270888
Sioux Lookout,50.1001,-91.917,46.44,47,29,7.49,CA,1665270888
Armidale,-30.5167,151.65,48.06,91,97,5.86,AU,1665270889
Chitral,35.8462,71.7858,62.58,32,0,3.96,PK,1665270889
Mattoon,39.4831,-88.3728,56.64,38,0,8.05,US,1665270889
Miyako,39.6367,141.9525,58.78,70,98,1.28,JP,1665270890
Leh,34.1667,77.5833,42.13,33,0,4.76,IN,1665270890
Ambilobe,-13.2,49.05,65.46,73,35,4.59,MG,1665270890
Krasnomayskiy,57.6194,34.4099,50.85,89,100,10.2,RU,1665270891
Resistencia,-27.4606,-58.9839,80.58,44,26,26.46,AR,1665270685
Korla,41.7597,86.1469,57.61,29,100,7.7,CN,1665270891
Inírida,3.8653,-67.9239,79.92,75,97,2.57,CO,1665270891
Dickinson,29.4608,-95.0513,86.13,52,20,11.5,US,1665270891
Goderich,43.7501,-81.7165,53.91,54,12,17.27,CA,1665270892
Rehoboth,-23.3167,17.0833,72.23,23,17,6.91,NA,1665270614
Barra do Garças,-15.89,-52.2567,86.23,39,89,3.8,BR,1665270892
Asău,46.4333,26.4,43.72,82,99,4.29,RO,1665270892
Larsnes,62.2028,5.5773,49.44,79,96,15.14,NO,1665270893
Anthili,38.85,22.4667,65.88,60,88,1.01,GR,1665270893
Axum,14.1245,38.7244,59.49,60,50,2.84,ET,1665270893
Nemuro,43.3236,145.575,52.63,66,20,1.95,JP,1665270894
Asilah,35.465,-6.0348,73.36,85,16,9.71,MA,1665270894
Sal Rei,16.1833,-22.9167,77.13,78,31,15.48,CV,1665270894
